{"type":"FeatureCollection", "features": [
{"type":"Feature","geometry":{"type":"Point","coordinates":[116.31225693979283,39.9060087110283]},"properties":{"Id":0,"名称":"京西北墙","单位":"","警力":"","备注":""}},
{"type":"Feature","geometry":{"type":"Point","coordinates":[116.31480153539253,39.90597896776573]},"properties":{"Id":0,"名称":"世纪坛路口西南角","单位":"","警力":"","备注":""}},
{"type":"Feature","geometry":{"type":"Point","coordinates":[116.31543375818181,39.90597382812996]},"properties":{"Id":0,"名称":"世纪坛路口东南角","单位":"","警力":"","备注":""}},
{"type":"Feature","geometry":{"type":"Point","coordinates":[116.31476179839372,39.90660557502704]},"properties":{"Id":0,"名称":"世纪坛路口西北角","单位":"","警力":"","备注":""}},
{"type":"Feature","geometry":{"type":"Point","coordinates":[116.31569073997044,39.90660557502704]},"properties":{"Id":0,"名称":"世纪坛路口东北角","单位":"","警力":"","备注":""}},
{"type":"Feature","geometry":{"type":"Point","coordinates":[116.31475575059692,39.90968780984104]},"properties":{"Id":0,"名称":"世纪坛西侧路北口","单位":"","警力":"","备注":""}},
{"type":"Feature","geometry":{"type":"Point","coordinates":[116.3107515936162,39.909698596730934]},"properties":{"Id":0,"名称":"柳林馆路北口东侧","单位":"","警力":"","备注":""}},
{"type":"Feature","geometry":{"type":"Point","coordinates":[116.31055386040661,39.90971430117357]},"properties":{"Id":0,"名称":"柳林馆路北口西侧","单位":"","警力":"","备注":""}},
{"type":"Feature","geometry":{"type":"Point","coordinates":[116.3105079368092,39.90660220412392]},"properties":{"Id":0,"名称":"京西路口西北角","单位":"","警力":"","备注":""}},
{"type":"Feature","geometry":{"type":"Point","coordinates":[116.31080489354274,39.90660220412392]},"properties":{"Id":0,"名称":"京西路口东北角","单位":"","警力":"","备注":""}},
{"type":"Feature","geometry":{"type":"Point","coordinates":[116.31054362872428,39.90601757055476]},"properties":{"Id":0,"名称":"京西路口西南角","单位":"","警力":"","备注":""}},
{"type":"Feature","geometry":{"type":"Point","coordinates":[116.31054362872428,39.90593762066496]},"properties":{"Id":0,"名称":"京西路口西南角治安岗亭","单位":"","警力":"","备注":""}},
{"type":"Feature","geometry":{"type":"Point","coordinates":[116.31080846273423,39.90600186611212]},"properties":{"Id":0,"名称":"京西路口东南角","单位":"","警力":"","备注":""}},
{"type":"Feature","geometry":{"type":"Point","coordinates":[116.31078014714825,39.905759874927824]},"properties":{"Id":0,"名称":"京西西北门","单位":"","警力":"","备注":""}},
{"type":"Feature","geometry":{"type":"Point","coordinates":[116.31056409208891,39.905512410983214]},"properties":{"Id":0,"名称":"羊坊店西路西侧便道巡视","单位":"","警力":"","备注":""}},
{"type":"Feature","geometry":{"type":"Point","coordinates":[116.31073422355082,39.9051385976592]},"properties":{"Id":0,"名称":"警犬巡视","单位":"警犬中队","警力":"两警两犬","备注":""}},
{"type":"Feature","geometry":{"type":"Point","coordinates":[116.31074564496367,39.90458608681361]},"properties":{"Id":0,"名称":"京西西南门","单位":"","警力":"","备注":""}},
{"type":"Feature","geometry":{"type":"Point","coordinates":[116.3105590952208,39.9035733882095]},"properties":{"Id":0,"名称":"空军东门","单位":"","警力":"","备注":""}},
{"type":"Feature","geometry":{"type":"Point","coordinates":[116.31073565122743,39.90228990694295]},"properties":{"Id":0,"名称":"皇亭子弯巷西口","单位":"","警力":"","备注":""}},
{"type":"Feature","geometry":{"type":"Point","coordinates":[116.31074421728705,39.89924610042426]},"properties":{"Id":0,"名称":"铁医路西口","单位":"","警力":"","备注":""}},
{"type":"Feature","geometry":{"type":"Point","coordinates":[116.31481666479856,39.899244910693774]},"properties":{"Id":0,"名称":"铁医路东口","单位":"","警力":"","备注":""}},
{"type":"Feature","geometry":{"type":"Point","coordinates":[116.3148078607929,39.90051697054748]},"properties":{"Id":0,"名称":"皇亭子弯巷东口","单位":"","警力":"","备注":""}},
{"type":"Feature","geometry":{"type":"Point","coordinates":[116.31485045314491,39.90584538680771]},"properties":{"Id":0,"名称":"京西东北角治安岗亭","单位":"","警力":"","备注":""}},
{"type":"Feature","geometry":{"type":"Point","coordinates":[116.31478269799274,39.907198903543296]},"properties":{"Id":0,"名称":"央视东门","单位":"","警力":"","备注":""}},
{"type":"Feature","geometry":{"type":"Point","coordinates":[116.31080578584017,39.90711562240806]},"properties":{"Id":0,"名称":"央视西门","单位":"","警力":"","备注":""}},
{"type":"Feature","geometry":{"type":"Point","coordinates":[116.30717845616716,39.90572746468601]},"properties":{"Id":0,"名称":"新兴桥东南角","单位":"","警力":"","备注":""}},
{"type":"Feature","geometry":{"type":"Point","coordinates":[116.30719249498708,39.906675917843025]},"properties":{"Id":0,"名称":"新兴桥东北角","单位":"","警力":"","备注":""}},
{"type":"Feature","geometry":{"type":"Point","coordinates":[116.30998237335899,39.9063867935019]},"properties":{"Id":0,"名称":"科情天桥北侧汽车站","单位":"海淀","警力":"","备注":""}},
{"type":"Feature","geometry":{"type":"Point","coordinates":[116.309947672886,39.906025611150056]},"properties":{"Id":0,"名称":"科情天桥南侧","单位":"海淀","警力":"","备注":""}},
{"type":"Feature","geometry":{"type":"Point","coordinates":[116.32262872676495,39.906467869669875]},"properties":{"Id":0,"名称":"茂林居西路南口","单位":"","警力":"","备注":""}},
{"type":"Feature","geometry":{"type":"Point","coordinates":[116.32041206550674,39.90647935056923]},"properties":{"Id":0,"名称":"军博地铁b口东侧","单位":"","警力":"","备注":""}},
{"type":"Feature","geometry":{"type":"Point","coordinates":[116.31326400601449,39.90650762649748]},"properties":{"Id":0,"名称":"央视南墙","单位":"","警力":"","备注":""}},
{"type":"Feature","geometry":{"type":"Point","coordinates":[116.31073654253413,39.903034089321125]},"properties":{"Id":0,"名称":"皇亭子社区西南门至西北门巡视","单位":"","警力":"","备注":""}},
{"type":"Feature","geometry":{"type":"Point","coordinates":[116.31563264047283,39.90883890341806]},"properties":{"Id":0,"名称":"上访处置小组","单位":"","警力":"","备注":""}},
{"type":"Feature","geometry":{"type":"Point","coordinates":[116.31395088204876,39.905060197393354]},"properties":{"Id":0,"名称":"南墙巡视","单位":"羊坊店","警力":"一警两辅","备注":""}},
{"type":"Feature","geometry":{"type":"Point","coordinates":[116.31308726857415,39.90471624630492]},"properties":{"Id":0,"名称":"南墙巡视","单位":"羊坊店","警力":"一警两辅","备注":""}},
{"type":"Feature","geometry":{"type":"Point","coordinates":[116.31139523385288,39.90404404857078]},"properties":{"Id":0,"名称":"南墙巡视","单位":"羊坊店","警力":"两警两辅","备注":""}}
]}