{"type":"FeatureCollection", "features": [
{"type":"Feature","geometry":{"type":"Point","coordinates":[116.32833310000001,39.91676110000003]},"properties":{"OBJECTID":38,"编码":11010803001300000000,"名称":"037127 钓鱼台国宾馆东门南侧人行道","摄像头编号":37127,"类型":"人卡","管理单位":"甘家口街道","TYPE":7}},
{"type":"Feature","geometry":{"type":"Point","coordinates":[116.32820410000011,39.91783110000006]},"properties":{"OBJECTID":39,"编码":11010803001300000000,"名称":"037128 钓鱼台国宾馆东门南侧步道","摄像头编号":37128,"类型":"人卡","管理单位":"甘家口街道","TYPE":7}},
{"type":"Feature","geometry":{"type":"Point","coordinates":[116.3283421000001,39.917052100000035]},"properties":{"OBJECTID":40,"编码":11010803001300000000,"名称":"037129 钓鱼台国宾馆东门北侧人行道","摄像头编号":37129,"类型":"人卡","管理单位":"甘家口街道","TYPE":7}},
{"type":"Feature","geometry":{"type":"Point","coordinates":[116.32818610000004,39.91636810000006]},"properties":{"OBJECTID":41,"编码":11010803001300000000,"名称":"037130 钓鱼台国宾馆东门北侧步道","摄像头编号":37130,"类型":"人卡","管理单位":"甘家口街道","TYPE":7}},
{"type":"Feature","geometry":{"type":"Point","coordinates":[116.32722910000007,39.92152910000004]},"properties":{"OBJECTID":42,"编码":11010803001300000000,"名称":"037131 钓鱼台国宾馆北门东侧步道","摄像头编号":37131,"类型":"人卡","管理单位":"甘家口街道","TYPE":7}},
{"type":"Feature","geometry":{"type":"Point","coordinates":[116.32643710000002,39.92166210000005]},"properties":{"OBJECTID":43,"编码":11010803001300000000,"名称":"037132 钓鱼台国宾馆北门人行道","摄像头编号":37132,"类型":"人卡","管理单位":"甘家口街道","TYPE":7}},
{"type":"Feature","geometry":{"type":"Point","coordinates":[116.32587510000008,39.92159810000004]},"properties":{"OBJECTID":44,"编码":11010803001300000000,"名称":"037133 钓鱼台国宾馆北门西侧步道","摄像头编号":37133,"类型":"人卡","管理单位":"甘家口街道","TYPE":7}},
{"type":"Feature","geometry":{"type":"Point","coordinates":[116.3226231000001,39.92028810000005]},"properties":{"OBJECTID":45,"编码":11010803001300000000,"名称":"037134 钓鱼台国宾馆西门北侧路东","摄像头编号":37134,"类型":"人卡","管理单位":"甘家口街道","TYPE":7}},
{"type":"Feature","geometry":{"type":"Point","coordinates":[116.32254110000008,39.92029110000004]},"properties":{"OBJECTID":46,"编码":11010803001300000000,"名称":"037135 钓鱼台国宾馆西门北侧路西","摄像头编号":37135,"类型":"人卡","管理单位":"甘家口街道","TYPE":7}},
{"type":"Feature","geometry":{"type":"Point","coordinates":[116.31606487300007,39.922111200000074]},"properties":{"OBJECTID":47,"编码":11010803001300000000,"名称":"037155 海军总医院北2门门口西侧","摄像头编号":37155,"类型":"人卡","管理单位":"甘家口街道","TYPE":7}},
{"type":"Feature","geometry":{"type":"Point","coordinates":[116.31646639500002,39.922102307000046]},"properties":{"OBJECTID":48,"编码":11010803001300000000,"名称":"037156 海军总医院北2门门口东侧","摄像头编号":37156,"类型":"人卡","管理单位":"甘家口街道","TYPE":7}},
{"type":"Feature","geometry":{"type":"Point","coordinates":[116.31798696900012,39.92202028100007]},"properties":{"OBJECTID":49,"编码":11010803001300000000,"名称":"037157 海军总医院北1门东侧","摄像头编号":37157,"类型":"人卡","管理单位":"甘家口街道","TYPE":7}},
{"type":"Feature","geometry":{"type":"Point","coordinates":[116.31732456800012,39.92205898900005]},"properties":{"OBJECTID":50,"编码":11010803001300000000,"名称":"037158 海军总医院北1门西侧","摄像头编号":37158,"类型":"人卡","管理单位":"甘家口街道","TYPE":7}},
{"type":"Feature","geometry":{"type":"Point","coordinates":[116.31354026700001,39.91933311900004]},"properties":{"OBJECTID":51,"编码":11010803001300000000,"名称":"037159 玉渊潭公园北门东侧","摄像头编号":37159,"类型":"人卡","管理单位":"甘家口街道","TYPE":7}},
{"type":"Feature","geometry":{"type":"Point","coordinates":[116.3044989870001,39.91661232800004]},"properties":{"OBJECTID":52,"编码":11010803001300000000,"名称":"037160 玉渊潭公园正门北侧","摄像头编号":37160,"类型":"人卡","管理单位":"甘家口街道","TYPE":7}},
{"type":"Feature","geometry":{"type":"Point","coordinates":[116.30446679400006,39.91623344100003]},"properties":{"OBJECTID":53,"编码":11010803001300000000,"名称":"037161 玉渊潭公园正门南侧","摄像头编号":37161,"类型":"人卡","管理单位":"甘家口街道","TYPE":7}},
{"type":"Feature","geometry":{"type":"Point","coordinates":[116.32818088900001,39.911701606000065]},"properties":{"OBJECTID":54,"编码":11010803001300000000,"名称":"037162 玉渊潭公园东南门南侧","摄像头编号":37162,"类型":"人卡","管理单位":"甘家口街道","TYPE":7}},
{"type":"Feature","geometry":{"type":"Point","coordinates":[116.3281865460001,39.91205253000004]},"properties":{"OBJECTID":55,"编码":11010803001300000000,"名称":"037163 玉渊潭公园东南门北侧2","摄像头编号":37163,"类型":"人卡","管理单位":"甘家口街道","TYPE":7}},
{"type":"Feature","geometry":{"type":"Point","coordinates":[116.31938333100004,39.92321649000007]},"properties":{"OBJECTID":56,"编码":11010803001300000000,"名称":"037172 白堆子地铁站A口","摄像头编号":37172,"类型":"人卡","管理单位":"甘家口街道","TYPE":7}},
{"type":"Feature","geometry":{"type":"Point","coordinates":[116.32000688900007,39.92285814500008]},"properties":{"OBJECTID":57,"编码":11010803001300000000,"名称":"037173 白堆子地铁站B口","摄像头编号":37173,"类型":"人卡","管理单位":"甘家口街道","TYPE":7}},
{"type":"Feature","geometry":{"type":"Point","coordinates":[116.32055987900003,39.92187650500006]},"properties":{"OBJECTID":58,"编码":11010803001300000000,"名称":"037174 白堆子地铁站C口","摄像头编号":37174,"类型":"人卡","管理单位":"甘家口街道","TYPE":7}},
{"type":"Feature","geometry":{"type":"Point","coordinates":[116.31888011100011,39.921977595000044]},"properties":{"OBJECTID":59,"编码":11010803001300000000,"名称":"037175 白堆子地铁站D口","摄像头编号":37175,"类型":"人卡","管理单位":"甘家口街道","TYPE":7}},
{"type":"Feature","geometry":{"type":"Point","coordinates":[116.31931364200011,39.923955371000034]},"properties":{"OBJECTID":60,"编码":11010803001300000000,"名称":"037182 首都师范大学东一区东门北","摄像头编号":37182,"类型":"人卡","管理单位":"甘家口街道","TYPE":7}},
{"type":"Feature","geometry":{"type":"Point","coordinates":[116.31930925400002,39.92345880800008]},"properties":{"OBJECTID":61,"编码":11010803001300000000,"名称":"037183 首都师范大学东一区东门南","摄像头编号":37183,"类型":"人卡","管理单位":"甘家口街道","TYPE":7}},
{"type":"Feature","geometry":{"type":"Point","coordinates":[116.31047949800006,39.92413389700005]},"properties":{"OBJECTID":62,"编码":11010803001300000000,"名称":"037186 工商大学西校区东门1","摄像头编号":37186,"类型":"人卡","管理单位":"甘家口街道","TYPE":7}},
{"type":"Feature","geometry":{"type":"Point","coordinates":[116.31048006300011,39.924487870000064]},"properties":{"OBJECTID":63,"编码":11010803001300000000,"名称":"037187 工商大学西校区东门2","摄像头编号":37187,"类型":"人卡","管理单位":"甘家口街道","TYPE":7}},
{"type":"Feature","geometry":{"type":"Point","coordinates":[116.3086271090001,39.92290746800006]},"properties":{"OBJECTID":64,"编码":11010803001300000000,"名称":"037190 北京工商大学西校区南门东","摄像头编号":37190,"类型":"人卡","管理单位":"甘家口街道","TYPE":7}},
{"type":"Feature","geometry":{"type":"Point","coordinates":[116.30800113700002,39.92293617400003]},"properties":{"OBJECTID":65,"编码":11010803001300000000,"名称":"037191 北京工商大学西校区南门西","摄像头编号":37191,"类型":"人卡","管理单位":"甘家口街道","TYPE":7}},
{"type":"Feature","geometry":{"type":"Point","coordinates":[116.31307331800008,39.922729066000045]},"properties":{"OBJECTID":66,"编码":11010803001300000000,"名称":"037192 北京工商大学东校区南门西","摄像头编号":37192,"类型":"人卡","管理单位":"甘家口街道","TYPE":7}},
{"type":"Feature","geometry":{"type":"Point","coordinates":[116.31341438000004,39.92271734800005]},"properties":{"OBJECTID":67,"编码":11010803001300000000,"名称":"037193 北京工商大学东校区南门东","摄像头编号":37193,"类型":"人卡","管理单位":"甘家口街道","TYPE":7}},
{"type":"Feature","geometry":{"type":"Point","coordinates":[116.31059278400005,39.92445883600004]},"properties":{"OBJECTID":68,"编码":11010803001300000000,"名称":"037194 北京工商大学东校区西门南","摄像头编号":37194,"类型":"人卡","管理单位":"甘家口街道","TYPE":7}},
{"type":"Feature","geometry":{"type":"Point","coordinates":[116.31059604900008,39.924578593000035]},"properties":{"OBJECTID":69,"编码":11010803001300000000,"名称":"037195 北京工商大学东校区西门北","摄像头编号":37195,"类型":"人卡","管理单位":"甘家口街道","TYPE":7}},
{"type":"Feature","geometry":{"type":"Point","coordinates":[116.3174279000001,39.92218968000003]},"properties":{"OBJECTID":70,"编码":11010803001300000000,"名称":"037209 海军总医院北1门门口西侧","摄像头编号":37209,"类型":"人卡","管理单位":"甘家口街道","TYPE":7}},
{"type":"Feature","geometry":{"type":"Point","coordinates":[116.30445788800012,39.92419263100004]},"properties":{"OBJECTID":74,"编码":11010803001300000000,"名称":"037216 航天桥东北角北侧便道","摄像头编号":37216,"类型":"人卡","管理单位":"甘家口街道","TYPE":7}},
{"type":"Feature","geometry":{"type":"Point","coordinates":[116.31389646900004,39.90975051400005]},"properties":{"OBJECTID":518,"编码":11010802001300000000,"名称":"027454 梅地亚宾馆北门西侧便道","摄像头编号":27454,"类型":"人卡","管理单位":"羊坊店街道","TYPE":7}},
{"type":"Feature","geometry":{"type":"Point","coordinates":[116.31454010000004,39.90973310000004]},"properties":{"OBJECTID":519,"编码":11010802001300000000,"名称":"027455 梅地亚宾馆北门东侧便道","摄像头编号":27455,"类型":"人卡","管理单位":"羊坊店街道","TYPE":7}},
{"type":"Feature","geometry":{"type":"Point","coordinates":[116.31477710000001,39.90894910000003]},"properties":{"OBJECTID":520,"编码":11010802001300000000,"名称":"027456 梅地亚宾馆东门北侧","摄像头编号":27456,"类型":"人卡","管理单位":"羊坊店街道","TYPE":7}},
{"type":"Feature","geometry":{"type":"Point","coordinates":[116.31477410000002,39.90837110000007]},"properties":{"OBJECTID":521,"编码":11010802001300000000,"名称":"027457 梅地亚宾馆东门南侧","摄像头编号":27457,"类型":"人卡","管理单位":"羊坊店街道","TYPE":7}},
{"type":"Feature","geometry":{"type":"Point","coordinates":[116.31735210000011,39.89907110000007]},"properties":{"OBJECTID":522,"编码":11010802001300000000,"名称":"027458 铁道大厦西门西侧路北便道","摄像头编号":27458,"类型":"人卡","管理单位":"羊坊店街道","TYPE":7}},
{"type":"Feature","geometry":{"type":"Point","coordinates":[116.31755310000005,39.89855110000008]},"properties":{"OBJECTID":523,"编码":11010802001300000000,"名称":"027459 铁道大厦西门南侧便道","摄像头编号":27459,"类型":"人卡","管理单位":"羊坊店街道","TYPE":7}},
{"type":"Feature","geometry":{"type":"Point","coordinates":[116.31763610000007,39.89937610000004]},"properties":{"OBJECTID":524,"编码":11010802001300000000,"名称":"027460 铁道大厦西门北侧路东便道","摄像头编号":27460,"类型":"人卡","管理单位":"羊坊店街道","TYPE":7}},
{"type":"Feature","geometry":{"type":"Point","coordinates":[116.31751710000003,39.89936410000007]},"properties":{"OBJECTID":525,"编码":11010802001300000000,"名称":"027461 铁道大厦西门北侧路西便道","摄像头编号":27461,"类型":"人卡","管理单位":"羊坊店街道","TYPE":7}},
{"type":"Feature","geometry":{"type":"Point","coordinates":[116.32287966800004,39.90659566900007]},"properties":{"OBJECTID":574,"编码":11010802001300000000,"名称":"027559 茂林居西路与复兴路交叉口","摄像头编号":27559,"类型":"人卡","管理单位":"羊坊店街道","TYPE":7}},
{"type":"Feature","geometry":{"type":"Point","coordinates":[116.32305893500006,39.90772930900005]},"properties":{"OBJECTID":575,"编码":11010802001300000000,"名称":"027560 茂林居西路与工会路口","摄像头编号":27560,"类型":"人卡","管理单位":"羊坊店街道","TYPE":7}},
{"type":"Feature","geometry":{"type":"Point","coordinates":[116.32339325200007,39.90956758800007]},"properties":{"OBJECTID":576,"编码":11010802001300000000,"名称":"027561茂林居西路与玉渊潭南路路口","摄像头编号":27561,"类型":"人卡","管理单位":"羊坊店街道","TYPE":7}},
{"type":"Feature","geometry":{"type":"Point","coordinates":[116.32116270900008,39.90975330900005]},"properties":{"OBJECTID":577,"编码":11010802001300000000,"名称":"027562军委大楼东北角玉渊潭南路南","摄像头编号":27562,"类型":"人卡","管理单位":"羊坊店街道","TYPE":7}},
{"type":"Feature","geometry":{"type":"Point","coordinates":[116.32116245100008,39.909752096000034]},"properties":{"OBJECTID":578,"编码":11010802001300000000,"名称":"027563 军委大楼东北玉渊潭南路北","摄像头编号":27563,"类型":"人卡","管理单位":"羊坊店街道","TYPE":7}},
{"type":"Feature","geometry":{"type":"Point","coordinates":[116.31630733800012,39.90969379000006]},"properties":{"OBJECTID":579,"编码":11010802001300000000,"名称":"027564 玉渊潭南路与军博西路路口","摄像头编号":27564,"类型":"人卡","管理单位":"羊坊店街道","TYPE":7}},
{"type":"Feature","geometry":{"type":"Point","coordinates":[116.3156680400001,39.90944404500004]},"properties":{"OBJECTID":580,"编码":11010802001300000000,"名称":"027565 军博西路玉渊潭南路交叉口","摄像头编号":27565,"类型":"人卡","管理单位":"羊坊店街道","TYPE":7}},
{"type":"Feature","geometry":{"type":"Point","coordinates":[116.31566888100008,39.906886867000026]},"properties":{"OBJECTID":581,"编码":11010802001300000000,"名称":"027566 军博西路与复兴路交叉口","摄像头编号":27566,"类型":"人卡","管理单位":"羊坊店街道","TYPE":7}},
{"type":"Feature","geometry":{"type":"Point","coordinates":[116.31567018100009,39.90688714000004]},"properties":{"OBJECTID":582,"编码":11010802001300000000,"名称":"027567 军博西路与复兴路交叉口","摄像头编号":27567,"类型":"人卡","管理单位":"羊坊店街道","TYPE":7}},
{"type":"Feature","geometry":{"type":"Point","coordinates":[116.31638070100007,39.906541134000065]},"properties":{"OBJECTID":583,"编码":11010802001300000000,"名称":"027568 军博西南角步道向东侧","摄像头编号":27568,"类型":"人卡","管理单位":"羊坊店街道","TYPE":7}},
{"type":"Feature","geometry":{"type":"Point","coordinates":[116.31638051700008,39.90654077800008]},"properties":{"OBJECTID":584,"编码":11010802001300000000,"名称":"027569 军博西南角步道向西侧","摄像头编号":27569,"类型":"人卡","管理单位":"羊坊店街道","TYPE":7}},
{"type":"Feature","geometry":{"type":"Point","coordinates":[116.3183056360001,39.90630142500004]},"properties":{"OBJECTID":585,"编码":11010802001300000000,"名称":"027570 军博正门","摄像头编号":27570,"类型":"人卡","管理单位":"羊坊店街道","TYPE":7}},
{"type":"Feature","geometry":{"type":"Point","coordinates":[116.31921474100011,39.90651070900003]},"properties":{"OBJECTID":586,"编码":11010802001300000000,"名称":"027571 军博东南角步道","摄像头编号":27571,"类型":"人卡","管理单位":"羊坊店街道","TYPE":7}},
{"type":"Feature","geometry":{"type":"Point","coordinates":[116.31921474,39.90651367100003]},"properties":{"OBJECTID":587,"编码":11010802001300000000,"名称":"027572  军委西南角步道","摄像头编号":27572,"类型":"人卡","管理单位":"羊坊店街道","TYPE":7}},
{"type":"Feature","geometry":{"type":"Point","coordinates":[116.3197668680001,39.906306021000034]},"properties":{"OBJECTID":588,"编码":11010802001300000000,"名称":"027573 军委西南角复兴路北侧步道","摄像头编号":27573,"类型":"人卡","管理单位":"羊坊店街道","TYPE":7}},
{"type":"Feature","geometry":{"type":"Point","coordinates":[116.3153635650001,39.90500318900007]},"properties":{"OBJECTID":589,"编码":11010802001300000000,"名称":"027574 恩菲大厦西门","摄像头编号":27574,"类型":"人卡","管理单位":"羊坊店街道","TYPE":7}},
{"type":"Feature","geometry":{"type":"Point","coordinates":[116.3148456240001,39.903715401000056]},"properties":{"OBJECTID":590,"编码":11010802001300000000,"名称":"027575 新华社社区东门","摄像头编号":27575,"类型":"人卡","管理单位":"羊坊店街道","TYPE":7}},
{"type":"Feature","geometry":{"type":"Point","coordinates":[116.31485907900003,39.90208590200007]},"properties":{"OBJECTID":591,"编码":11010802001300000000,"名称":"027576 京门大厦","摄像头编号":27576,"类型":"人卡","管理单位":"羊坊店街道","TYPE":7}},
{"type":"Feature","geometry":{"type":"Point","coordinates":[116.31536080800004,39.89936744400006]},"properties":{"OBJECTID":592,"编码":11010802001300000000,"名称":"027577 羊坊店路北蜂窝中路交叉口","摄像头编号":27577,"类型":"人卡","管理单位":"羊坊店街道","TYPE":7}},
{"type":"Feature","geometry":{"type":"Point","coordinates":[116.31537307200006,39.89725165200008]},"properties":{"OBJECTID":593,"编码":11010802001300000000,"名称":"027578 光耀东方西南角","摄像头编号":27578,"类型":"人卡","管理单位":"羊坊店街道","TYPE":7}},
{"type":"Feature","geometry":{"type":"Point","coordinates":[116.31484533300011,39.897237096000026]},"properties":{"OBJECTID":594,"编码":11010802001300000000,"名称":"027579 世纪坛医院东南角","摄像头编号":27579,"类型":"人卡","管理单位":"羊坊店街道","TYPE":7}},
{"type":"Feature","geometry":{"type":"Point","coordinates":[116.3107329720001,39.89759623400005]},"properties":{"OBJECTID":595,"编码":11010802001300000000,"名称":"027580 羊坊店西路南端路口东侧","摄像头编号":27580,"类型":"人卡","管理单位":"羊坊店街道","TYPE":7}},
{"type":"Feature","geometry":{"type":"Point","coordinates":[116.31059779600002,39.897583336000025]},"properties":{"OBJECTID":596,"编码":11010802001300000000,"名称":"027581 羊坊店西路南口路口西侧","摄像头编号":27581,"类型":"人卡","管理单位":"羊坊店街道","TYPE":7}},
{"type":"Feature","geometry":{"type":"Point","coordinates":[116.31059257100003,39.89987735600005]},"properties":{"OBJECTID":597,"编码":11010802001300000000,"名称":"027583 羊坊店西路与铁医路路口西","摄像头编号":27583,"类型":"人卡","管理单位":"羊坊店街道","TYPE":7}},
{"type":"Feature","geometry":{"type":"Point","coordinates":[116.30973018800012,39.90603483600006]},"properties":{"OBJECTID":598,"编码":11010802001300000000,"名称":"027584 羊坊店西路与复兴路叉口南侧","摄像头编号":27584,"类型":"人卡","管理单位":"羊坊店街道","TYPE":7}},
{"type":"Feature","geometry":{"type":"Point","coordinates":[116.31227832900004,39.906552066000074]},"properties":{"OBJECTID":599,"编码":11010802001300000000,"名称":"027585 柳林馆路与复兴路交叉口东","摄像头编号":27585,"类型":"人卡","管理单位":"羊坊店街道","TYPE":7}},
{"type":"Feature","geometry":{"type":"Point","coordinates":[116.30940080300002,39.906579185000055]},"properties":{"OBJECTID":600,"编码":11010802001300000000,"名称":"027586 柳林馆与复兴路交叉口西侧","摄像头编号":27586,"类型":"人卡","管理单位":"羊坊店街道","TYPE":7}},
{"type":"Feature","geometry":{"type":"Point","coordinates":[116.31077747500001,39.906732445000046]},"properties":{"OBJECTID":601,"编码":11010802001300000000,"名称":"027587 柳林馆与复兴路交叉口北侧","摄像头编号":27587,"类型":"人卡","管理单位":"羊坊店街道","TYPE":7}},
{"type":"Feature","geometry":{"type":"Point","coordinates":[116.30508758600001,39.89726563000005]},"properties":{"OBJECTID":625,"编码":11010802001300000000,"名称":"027611 莲花桥地铁站B出入口东南侧","摄像头编号":27611,"类型":"人卡","管理单位":"羊坊店街道","TYPE":7}},
{"type":"Feature","geometry":{"type":"Point","coordinates":[116.3046632170001,39.89593247600004]},"properties":{"OBJECTID":626,"编码":11010802001300000000,"名称":"027613 莲花桥地铁站C出入口南侧","摄像头编号":27613,"类型":"人卡","管理单位":"羊坊店街道","TYPE":7}},
{"type":"Feature","geometry":{"type":"Point","coordinates":[116.3037593040001,39.89593531700007]},"properties":{"OBJECTID":627,"编码":11010802001300000000,"名称":"027615 莲花桥地铁站D出入口南侧","摄像头编号":27615,"类型":"人卡","管理单位":"羊坊店街道","TYPE":7}},
{"type":"Feature","geometry":{"type":"Point","coordinates":[116.3147896480001,39.906652002000044]},"properties":{"OBJECTID":628,"编码":11010802001300000000,"名称":"027617 军事博物馆地铁站E2出入口","摄像头编号":27617,"类型":"人卡","管理单位":"羊坊店街道","TYPE":7}},
{"type":"Feature","geometry":{"type":"Point","coordinates":[116.30310815900009,39.90720056600003]},"properties":{"OBJECTID":629,"编码":11010802001300000000,"名称":"027618 公主坟地铁A1出入口西侧","摄像头编号":27618,"类型":"人卡","管理单位":"羊坊店街道","TYPE":7}},
{"type":"Feature","geometry":{"type":"Point","coordinates":[116.30581248900012,39.90672544000006]},"properties":{"OBJECTID":630,"编码":11010802001300000000,"名称":"027619 公主坟地铁B1出入口东侧","摄像头编号":27619,"类型":"人卡","管理单位":"羊坊店街道","TYPE":7}},
{"type":"Feature","geometry":{"type":"Point","coordinates":[116.30581789100006,39.90603496400007]},"properties":{"OBJECTID":631,"编码":11010802001300000000,"名称":"027620 公主坟地铁C1出入口东侧","摄像头编号":27620,"类型":"人卡","管理单位":"羊坊店街道","TYPE":7}},
{"type":"Feature","geometry":{"type":"Point","coordinates":[116.30318713400004,39.90519989100005]},"properties":{"OBJECTID":632,"编码":11010802001300000000,"名称":"027621 公主坟地铁D1出入口东南角","摄像头编号":27621,"类型":"人卡","管理单位":"羊坊店街道","TYPE":7}},
{"type":"Feature","geometry":{"type":"Point","coordinates":[116.3148072030001,39.906001410000044]},"properties":{"OBJECTID":633,"编码":11010802001300000000,"名称":"027623 复兴路与羊坊店路口南侧路西","摄像头编号":27623,"类型":"人卡","管理单位":"羊坊店街道","TYPE":7}},
{"type":"Feature","geometry":{"type":"Point","coordinates":[116.31071644600001,39.90241531100003]},"properties":{"OBJECTID":634,"编码":11010802001300000000,"名称":"027624 羊坊店西路与皇亭子北侧路东","摄像头编号":27624,"类型":"人卡","管理单位":"羊坊店街道","TYPE":7}},
{"type":"Feature","geometry":{"type":"Point","coordinates":[116.31536496800004,39.90586232800007]},"properties":{"OBJECTID":635,"编码":11010802001300000000,"名称":"027625 复兴路与羊坊店路东南角","摄像头编号":27625,"类型":"人卡","管理单位":"羊坊店街道","TYPE":7}},
{"type":"Feature","geometry":{"type":"Point","coordinates":[116.31071884300002,39.90219190500005]},"properties":{"OBJECTID":636,"编码":11010802001300000000,"名称":"027626 羊坊店西路与皇亭子南侧路东","摄像头编号":27626,"类型":"人卡","管理单位":"羊坊店街道","TYPE":7}},
{"type":"Feature","geometry":{"type":"Point","coordinates":[116.31863655900008,39.90590536700006]},"properties":{"OBJECTID":637,"编码":11010802001300000000,"名称":"027628 复兴路与羊坊店东路南侧路西","摄像头编号":27628,"类型":"人卡","管理单位":"羊坊店街道","TYPE":7}},
{"type":"Feature","geometry":{"type":"Point","coordinates":[116.31874024500007,39.90590641700004]},"properties":{"OBJECTID":638,"编码":11010802001300000000,"名称":"027629 复兴路与羊坊店东路南侧路东","摄像头编号":27629,"类型":"人卡","管理单位":"羊坊店街道","TYPE":7}},
{"type":"Feature","geometry":{"type":"Point","coordinates":[116.32268511100006,39.905520488000036]},"properties":{"OBJECTID":639,"编码":11010802001300000000,"名称":"027631 复兴路与北蜂窝路口南侧","摄像头编号":27631,"类型":"人卡","管理单位":"羊坊店街道","TYPE":7}},
{"type":"Feature","geometry":{"type":"Point","coordinates":[116.32294722900008,39.905444155000055]},"properties":{"OBJECTID":640,"编码":11010802001300000000,"名称":"027633 复兴路与北蜂窝路口南侧路东","摄像头编号":27633,"类型":"人卡","管理单位":"羊坊店街道","TYPE":7}},
{"type":"Feature","geometry":{"type":"Point","coordinates":[116.32779635400004,39.90646372000003]},"properties":{"OBJECTID":641,"编码":11010802001300000000,"名称":"027635 北京中国科技会堂宾馆东南角","摄像头编号":27635,"类型":"人卡","管理单位":"羊坊店街道","TYPE":7}},
{"type":"Feature","geometry":{"type":"Point","coordinates":[116.32582802800005,39.906487653000056]},"properties":{"OBJECTID":642,"编码":11010802001300000000,"名称":"027636 北京中科会堂宾馆西南角西侧","摄像头编号":27636,"类型":"人卡","管理单位":"羊坊店街道","TYPE":7}},
{"type":"Feature","geometry":{"type":"Point","coordinates":[116.32582803600008,39.906487284000036]},"properties":{"OBJECTID":643,"编码":11010802001300000000,"名称":"027637 木樨地西公交站路北西侧","摄像头编号":27637,"类型":"人卡","管理单位":"羊坊店街道","TYPE":7}},
{"type":"Feature","geometry":{"type":"Point","coordinates":[116.32816267800001,39.90568166800006]},"properties":{"OBJECTID":644,"编码":11010802001300000000,"名称":"027638 复兴路与木樨地南里滨河路西南","摄像头编号":27638,"类型":"人卡","管理单位":"羊坊店街道","TYPE":7}},
{"type":"Feature","geometry":{"type":"Point","coordinates":[116.32836317400006,39.905743623000035]},"properties":{"OBJECTID":645,"编码":11010802001300000000,"名称":"027639 复兴路与木樨地南里滨河路东南","摄像头编号":27639,"类型":"人卡","管理单位":"羊坊店街道","TYPE":7}},
{"type":"Feature","geometry":{"type":"Point","coordinates":[116.32836394200001,39.90574371200006]},"properties":{"OBJECTID":646,"编码":11010802001300000000,"名称":"027640 复兴路与木樨地南里滨河路东南","摄像头编号":27640,"类型":"人卡","管理单位":"羊坊店街道","TYPE":7}},
{"type":"Feature","geometry":{"type":"Point","coordinates":[116.32685433400002,39.905830571000024]},"properties":{"OBJECTID":647,"编码":11010802001300000000,"名称":"027641 木樨地西公交站下行东侧路南","摄像头编号":27641,"类型":"人卡","管理单位":"羊坊店街道","TYPE":7}},
{"type":"Feature","geometry":{"type":"Point","coordinates":[116.30533355000011,39.90470504000007]},"properties":{"OBJECTID":648,"编码":11010802001300000000,"名称":"027643 新兴桥东南角公主坟东公交站","摄像头编号":27643,"类型":"人卡","管理单位":"羊坊店街道","TYPE":7}},
{"type":"Feature","geometry":{"type":"Point","coordinates":[116.32495212800006,39.90585379500004]},"properties":{"OBJECTID":649,"编码":11010802001300000000,"名称":"027644 木樨地西公交站路南公交站西侧","摄像头编号":27644,"类型":"人卡","管理单位":"羊坊店街道","TYPE":7}},
{"type":"Feature","geometry":{"type":"Point","coordinates":[116.3191254520001,39.90629481900004]},"properties":{"OBJECTID":650,"编码":11010802001300000000,"名称":"027645 军博馆公交站路北东侧","摄像头编号":27645,"类型":"人卡","管理单位":"羊坊店街道","TYPE":7}},
{"type":"Feature","geometry":{"type":"Point","coordinates":[116.31830315200011,39.90630579700007]},"properties":{"OBJECTID":651,"编码":11010802001300000000,"名称":"027646 军博馆路北公交站西侧","摄像头编号":27646,"类型":"人卡","管理单位":"羊坊店街道","TYPE":7}},
{"type":"Feature","geometry":{"type":"Point","coordinates":[116.315718403,39.90594288400007]},"properties":{"OBJECTID":652,"编码":11010802001300000000,"名称":"027647 军事博物馆公交站路南西侧","摄像头编号":27647,"类型":"人卡","管理单位":"羊坊店街道","TYPE":7}},
{"type":"Feature","geometry":{"type":"Point","coordinates":[116.31963616400003,39.905959635000045]},"properties":{"OBJECTID":653,"编码":11010802001300000000,"名称":"027648 军事博物馆公交站路南东侧","摄像头编号":27648,"类型":"人卡","管理单位":"羊坊店街道","TYPE":7}},
{"type":"Feature","geometry":{"type":"Point","coordinates":[116.32707697600006,39.90647034500006]},"properties":{"OBJECTID":654,"编码":11010802001300000000,"名称":"027649 木樨地西路北公交站东侧","摄像头编号":27649,"类型":"人卡","管理单位":"羊坊店街道","TYPE":7}},
{"type":"Feature","geometry":{"type":"Point","coordinates":[116.31727673000012,39.89729484900005]},"properties":{"OBJECTID":655,"编码":11010802001300000000,"名称":"027651 羊坊店东路21号院东侧便道","摄像头编号":27651,"类型":"人卡","管理单位":"羊坊店街道","TYPE":7}},
{"type":"Feature","geometry":{"type":"Point","coordinates":[116.31727762900005,39.89729493400006]},"properties":{"OBJECTID":656,"编码":11010802001300000000,"名称":"027652 羊坊店东路21号院东侧便道","摄像头编号":27652,"类型":"人卡","管理单位":"羊坊店街道","TYPE":7}},
{"type":"Feature","geometry":{"type":"Point","coordinates":[116.31870540000011,39.902022300000056]},"properties":{"OBJECTID":657,"编码":11010802001300000000,"名称":"027665 羊坊店东路南头路东步道","摄像头编号":27665,"类型":"人卡","管理单位":"羊坊店街道","TYPE":7}},
{"type":"Feature","geometry":{"type":"Point","coordinates":[116.32770822000009,39.90629233000004]},"properties":{"OBJECTID":658,"编码":11010802001300000000,"名称":"027668 羊坊店路与铁医路口北","摄像头编号":27668,"类型":"人卡","管理单位":"羊坊店街道","TYPE":7}},
{"type":"Feature","geometry":{"type":"Point","coordinates":[116.32325999000011,39.90955622000007]},"properties":{"OBJECTID":660,"编码":11010802001300000000,"名称":"027679 国税总局胡同口西侧步道","摄像头编号":27679,"类型":"人卡","管理单位":"羊坊店街道","TYPE":7}},
{"type":"Feature","geometry":{"type":"Point","coordinates":[116.32334667000009,39.90326511000006]},"properties":{"OBJECTID":661,"编码":11010802001300000000,"名称":"027680 羊坊店西路南头路东步道","摄像头编号":27680,"类型":"人卡","管理单位":"羊坊店街道","TYPE":7}},
{"type":"Feature","geometry":{"type":"Point","coordinates":[116.3232561100001,39.90324822000008]},"properties":{"OBJECTID":662,"编码":11010802001300000000,"名称":"027684 羊坊店西路南头路西步道","摄像头编号":27684,"类型":"人卡","管理单位":"羊坊店街道","TYPE":7}},
{"type":"Feature","geometry":{"type":"Point","coordinates":[116.31714622000004,39.91152333000008]},"properties":{"OBJECTID":663,"编码":11010802001300000000,"名称":"027685 新兴桥东南角南侧步道","摄像头编号":27685,"类型":"人卡","管理单位":"羊坊店街道","TYPE":7}},
{"type":"Feature","geometry":{"type":"Point","coordinates":[116.31653556000003,39.91396333000006]},"properties":{"OBJECTID":664,"编码":11010802001300000000,"名称":"027688 新兴桥东侧路北步道","摄像头编号":27688,"类型":"人卡","管理单位":"羊坊店街道","TYPE":7}},
{"type":"Feature","geometry":{"type":"Point","coordinates":[116.30459110000004,39.90810810000005]},"properties":{"OBJECTID":665,"编码":11010802001300000000,"名称":"027689 新兴桥东北角步道","摄像头编号":27689,"类型":"人卡","管理单位":"羊坊店街道","TYPE":7}},
{"type":"Feature","geometry":{"type":"Point","coordinates":[116.31717867000009,39.918177780000065]},"properties":{"OBJECTID":666,"编码":11010802001300000000,"名称":"027690 玉南路普惠桥东侧步道","摄像头编号":27690,"类型":"人卡","管理单位":"羊坊店街道","TYPE":7}},
{"type":"Feature","geometry":{"type":"Point","coordinates":[116.32323889000008,39.91679122000005]},"properties":{"OBJECTID":667,"编码":11010802001300000000,"名称":"027691 玉南路与柳林馆路南侧路西","摄像头编号":27691,"类型":"人卡","管理单位":"羊坊店街道","TYPE":7}},
{"type":"Feature","geometry":{"type":"Point","coordinates":[116.32335111000009,39.91682889000003]},"properties":{"OBJECTID":668,"编码":11010802001300000000,"名称":"027692 玉南路与柳林馆路南侧","摄像头编号":27692,"类型":"人卡","管理单位":"羊坊店街道","TYPE":7}}
]}